{
  "stations": [
    {
      "id": "1",
      "name": "MG Road Fast Charger",
      "type": "Type 2",
      "power": 22,
      "pricePerKwh": 15.00,
      "availability": true,
      "latitude": 28.6339,
      "longitude": 77.2271,
      "address": "42 MG Road, Connaught Place, Delhi",
      "hostName": "Sharma Electric",
      "rating": 4.5,
      "plugType": "Type 2",
      "amenities": ["Parking", "Chai/Coffee", "Wifi"],
      "city": "Delhi"
    },
    {
      "id": "2",
      "name": "Metro Station Charger",
      "type": "CCS",
      "power": 50,
      "pricePerKwh": 18.50,
      "availability": true,
      "latitude": 28.6139,
      "longitude": 77.2099,
      "address": "Rajiv Chowk Metro Station, Delhi NCR",
      "hostName": "Delhi Metro Authority",
      "rating": 4.2,
      "plugType": "CCS",
      "amenities": ["Parking", "Shopping", "Metro Access"],
      "city": "Delhi"
    },
    {
      "id": "3",    
      "name": "Hotel Charging Station",
      "type": "CHAdeMO",
      "power": 45,
      "pricePerKwh": 0.40,
      "availability": true,
      "latitude": 28.6339,
      "longitude": 77.2271,
      "address": "789 Hotel Ave, Uptown",
      "hostName": "Luxury Hotel",
      "rating": 4.8,
      "plugType": "CHAdeMO",
      "amenities": ["Valet", "Restaurant", "Lounge"],
      "city": "Delhi"
    },
    {
      "id": "4",
      "name": "South Delhi EV Hub",
      "type": "Type 2",
      "power": 30,
      "pricePerKwh": 16.50,
      "availability": true,
      "latitude": 28.6039,
      "longitude": 77.2471,
      "address": "123 South Extension, New Delhi",
      "hostName": "Green Power Ltd",
      "rating": 4.3,
      "plugType": "Type 2",
      "amenities": ["Parking", "Convenience Store", "Restrooms"],
      "city": "Delhi"
    },
    {
      "id": "5",
      "name": "North Delhi Fast Charger",
      "type": "CCS",
      "power": 60,
      "pricePerKwh": 19.75,
      "availability": false,
      "latitude": 28.6739,
      "longitude": 77.2171,
      "address": "456 Model Town, Delhi",
      "hostName": "PowerCharge India",
      "rating": 4.7,
      "plugType": "CCS",
      "amenities": ["Parking", "Cafe", "WiFi"],
      "city": "Delhi"
    },
    {
      "id": "6",
      "name": "Shopping Mall Charger",
      "type": "Type 2",
      "power": 22,
      "pricePerKwh": 14.50,
      "availability": true,
      "latitude": 28.6539,
      "longitude": 77.2571,
      "address": "Select Citywalk Mall, Saket, New Delhi",
      "hostName": "Mall Charging Solutions",
      "rating": 4.1,
      "plugType": "Type 2",
      "amenities": ["Shopping", "Food Court", "Cinema"],
      "city": "Delhi"
    },
    {
      "id": "7",
      "name": "Office Complex Station",
      "type": "CHAdeMO",
      "power": 40,
      "pricePerKwh": 17.25,
      "availability": true,
      "latitude": 28.6239,
      "longitude": 77.1871,
      "address": "Cyber City, Gurgaon",
      "hostName": "Corporate EV Solutions",
      "rating": 4.4,
      "plugType": "CHAdeMO",
      "amenities": ["Parking", "Coffee Shop", "Business Center"],
      "city": "Delhi"
    },
    {
      "id": "8",
      "name": "Residential Society Charger",
      "type": "Type 2",
      "power": 11,
      "pricePerKwh": 12.00,
      "availability": true,
      "latitude": 28.6089,
      "longitude": 77.2621,
      "address": "Green Valley Apartments, Noida",
      "hostName": "Resident Welfare Association",
      "rating": 3.9,
      "plugType": "Type 2",
      "amenities": ["24x7 Access", "Security"],
      "city": "Delhi"
    },
    {
      "id": "9",
      "name": "Highway Rest Stop",
      "type": "CCS",
      "power": 75,
      "pricePerKwh": 21.00,
      "availability": true,
      "latitude": 28.6839,
      "longitude": 77.2771,
      "address": "NH-8 Highway, Delhi-Jaipur Road",
      "hostName": "Highway Infrastructure Ltd",
      "rating": 4.6,
      "plugType": "CCS",
      "amenities": ["Food", "Restrooms", "Convenience Store"],
      "city": "Delhi"
    },
    {
      "id": "10",
      "name": "Airport Charging Point",
      "type": "CHAdeMO",
      "power": 50,
      "pricePerKwh": 20.00,
      "availability": true,
      "latitude": 28.5939,
      "longitude": 77.1971,
      "address": "IGI Airport, New Delhi",
      "hostName": "Airport Authority",
      "rating": 4.8,
      "plugType": "CHAdeMO",
      "amenities": ["Premium Parking", "Lounge Access", "Valet"],
      "city": "Delhi"
    },
    {
      "id": "11",
      "name": "Bandra Worli Sea Link EV Station",
      "type": "CCS",
      "power": 60,
      "pricePerKwh": 16.50,
      "availability": true,
      "latitude": 19.0395,
      "longitude": 72.8169,
      "address": "Sea Link Parking, Bandra, Mumbai",
      "hostName": "Maharashtra EV Corp",
      "rating": 4.6,
      "plugType": "CCS",
      "amenities": ["Parking", "Sea View", "Security"],
      "city": "Mumbai"
    },
    {
      "id": "12",
      "name": "Andheri Metro Station Charger",
      "type": "Type 2",
      "power": 22,
      "pricePerKwh": 14.00,
      "availability": false,
      "latitude": 19.0195,
      "longitude": 72.8369,
      "address": "Andheri Metro Station, Western Line, Mumbai",
      "hostName": "Metro EV Connect",
      "rating": 4.1,
      "plugType": "Type 2",
      "amenities": ["Metro Access", "Shopping", "Food Court"],
      "city": "Mumbai"
    },
    {
      "id": "13",
      "name": "Powai Lake EV Hub",
      "type": "CHAdeMO",
      "power": 50,
      "pricePerKwh": 17.25,
      "availability": true,
      "latitude": 19.0095,
      "longitude": 72.8669,
      "address": "Powai Lake, Near IIT Campus, Mumbai",
      "hostName": "Tech Green Solutions",
      "rating": 4.7,
      "plugType": "CHAdeMO",
      "amenities": ["Lake View", "Cafe", "WiFi"],
      "city": "Mumbai"
    },
    {
      "id": "14",
      "name": "MG Road Tech Park",
      "type": "Type 2",
      "power": 22,
      "pricePerKwh": 15.50,
      "availability": true,
      "latitude": 12.9765,
      "longitude": 77.6199,
      "address": "MG Road Tech Park, Bangalore",
      "hostName": "Karnataka Power Ltd",
      "rating": 4.4,
      "plugType": "Type 2",
      "amenities": ["Parking", "Coffee Shop", "WiFi"],
      "city": "Bangalore"
    },
    {
      "id": "15",
      "name": "Electronic City Fast Charger",
      "type": "CCS",
      "power": 75,
      "pricePerKwh": 18.50,
      "availability": true,
      "latitude": 12.9365,
      "longitude": 77.5999,
      "address": "Electronic City Phase 1, Bangalore",
      "hostName": "E-City Power Solutions",
      "rating": 4.8,
      "plugType": "CCS",
      "amenities": ["Tech Support", "Cafe", "Lounge"],
      "city": "Bangalore"
    },
    {
      "id": "16",
      "name": "Whitefield Mall Charging Point",
      "type": "CHAdeMO",
      "power": 45,
      "pricePerKwh": 16.75,
      "availability": true,
      "latitude": 12.9965,
      "longitude": 77.5899,
      "address": "Phoenix Mall, Whitefield, Bangalore",
      "hostName": "Retail EV Solutions",
      "rating": 4.3,
      "plugType": "CHAdeMO",
      "amenities": ["Shopping", "Food Court", "Cinema"],
      "city": "Bangalore"
    },
    {
      "id": "17",
      "name": "Marina Beach EV Point",
      "type": "Type 2",
      "power": 22,
      "pricePerKwh": 14.25,
      "availability": true,
      "latitude": 13.0569,
      "longitude": 80.2825,
      "address": "Marina Beach Road, Chennai",
      "hostName": "Tamil Nadu Electric",
      "rating": 4.2,
      "plugType": "Type 2",
      "amenities": ["Beach View", "Parking", "Food Stalls"],
      "city": "Chennai"
    },
    {
      "id": "18",
      "name": "IT Corridor Fast Charger",
      "type": "CCS",
      "power": 60,
      "pricePerKwh": 17.00,
      "availability": true,
      "latitude": 13.0769,
      "longitude": 80.2625,
      "address": "Rajiv Gandhi IT Highway, Chennai",
      "hostName": "TN Tech Solutions",
      "rating": 4.5,
      "plugType": "CCS",
      "amenities": ["Tech Support", "Coffee Shop", "WiFi"],
      "city": "Chennai"
    },
    {
      "id": "19",
      "name": "Hitech City Charging Hub",
      "type": "CCS",
      "power": 50,
      "pricePerKwh": 16.25,
      "availability": true,
      "latitude": 17.4633,
      "longitude": 78.3761,
      "address": "Hitech City Main Road, Hyderabad",
      "hostName": "Telangana Power Grid",
      "rating": 4.6,
      "plugType": "CCS",
      "amenities": ["Tech Support", "Cafe", "WiFi"],
      "city": "Hyderabad"
    },
    {
      "id": "20",
      "name": "Charminar Tourist EV Point",
      "type": "Type 2",
      "power": 22,
      "pricePerKwh": 14.75,
      "availability": true,
      "latitude": 17.4333,
      "longitude": 78.3661,
      "address": "Near Charminar, Old City, Hyderabad",
      "hostName": "Heritage EV Solutions",
      "rating": 4.0,
      "plugType": "Type 2",
      "amenities": ["Tourist Information", "Local Food", "Guided Tours"],
      "city": "Hyderabad"
    },
    {
      "id": "21",
      "name": "Salt Lake Stadium Charger",
      "type": "CHAdeMO",
      "power": 45,
      "pricePerKwh": 15.25,
      "availability": true,
      "latitude": 22.5926,
      "longitude": 88.4247,
      "address": "Salt Lake Stadium Complex, Kolkata",
      "hostName": "Bengal Power",
      "rating": 4.3,
      "plugType": "CHAdeMO",
      "amenities": ["Parking", "Sports Shop", "Cafe"],
      "city": "Kolkata"
    },
    {
      "id": "22",
      "name": "Howrah Bridge EV Station",
      "type": "Type 2",
      "power": 22,
      "pricePerKwh": 13.75,
      "availability": true,
      "latitude": 22.5826,
      "longitude": 88.4047,
      "address": "Near Howrah Bridge, Kolkata",
      "hostName": "Kolkata Electric",
      "rating": 4.1,
      "plugType": "Type 2",
      "amenities": ["River View", "Street Food", "Tourist Info"],
      "city": "Kolkata"
    },
    {
      "id": "23",
      "name": "Koregaon Park Charging Hub",
      "type": "CCS",
      "power": 50,
      "pricePerKwh": 16.00,
      "availability": true,
      "latitude": 18.5495,
      "longitude": 73.9051,
      "address": "Koregaon Park Main Road, Pune",
      "hostName": "Pune Eco Solutions",
      "rating": 4.5,
      "plugType": "CCS",
      "amenities": ["Valet", "Fine Dining", "Shopping"],
      "city": "Pune"
    },
    {
      "id": "24",
      "name": "Hinjewadi IT Park Charger",
      "type": "CHAdeMO",
      "power": 60,
      "pricePerKwh": 17.50,
      "availability": true,
      "latitude": 18.5295,
      "longitude": 73.8951,
      "address": "Hinjewadi Phase 2, Pune",
      "hostName": "Tech Valley EV",
      "rating": 4.7,
      "plugType": "CHAdeMO",
      "amenities": ["Tech Support", "Coffee Shop", "WiFi"],
      "city": "Pune"
    },
    {
      "id": "25",
      "name": "TML Balajee Auto - Aundh",
      "type": "AC Type-2 Charger",
      "power": 22,
      "pricePerKwh": 33.15,
      "availability": true,
      "latitude": 18.5578,
      "longitude": 73.8077,
      "address": "Phase 2, Siddarth Nagar, Aundh, Pune",
      "hostName": "Tata Motors",
      "rating": 4.2,
      "plugType": "Type 2",
      "amenities": ["Service Center", "Waiting Area"],
      "city": "Pune",
      "hours": "24/7",
      "connectorTypes": ["Type 2"]
    },
    {
      "id": "26",
      "name": "Vilux Theater - Khadki",
      "type": "AC Type-2 Charger",
      "power": 22,
      "pricePerKwh": 33.15,
      "availability": true,
      "latitude": 18.5679,
      "longitude": 73.8567,
      "address": "Vilux Theater, Khadki, Pune",
      "hostName": "Vilux Entertainment",
      "rating": 4.0,
      "plugType": "Type 2",
      "amenities": ["Cinema", "Food Court"],
      "city": "Pune",
      "hours": "24/7",
      "connectorTypes": ["Type 2"]
    },
    {
      "id": "27",
      "name": "Tata Motors (Bafna) - Baner",
      "type": "Bharat DC001 Charger",
      "power": 15,
      "pricePerKwh": 67.5,
      "availability": true,
      "latitude": 18.5590,
      "longitude": 73.7865,
      "address": "Supreme Headquarters, Showroom No 36, Baner, Pune",
      "hostName": "Bafna Motors",
      "rating": 4.3,
      "plugType": "Bharat DC001",
      "amenities": ["Showroom", "Customer Lounge"],
      "city": "Pune",
      "hours": "24/7",
      "connectorTypes": ["Bharat DC001"]
    },
    {
      "id": "28",
      "name": "Tata Motors (Panchajanya) - Bhosari",
      "type": "Multi-Charger Station",
      "power": 50,
      "pricePerKwh": 112.5,
      "availability": true,
      "latitude": 18.6186,
      "longitude": 73.8478,
      "address": "Panchajanya, Bhosari, Pune",
      "hostName": "Panchajanya Motors",
      "rating": 4.5,
      "plugType": "CCS-2",
      "amenities": ["Service Center", "Restrooms"],
      "city": "Pune",
      "hours": "24/7",
      "connectorTypes": ["CHAdeMO", "CCS-2", "Bharat DC001"]
    },
    {
      "id": "29",
      "name": "IOCL Trishul Service Station",
      "type": "Multi-Charger Station",
      "power": 50,
      "pricePerKwh": 112.5,
      "availability": true,
      "latitude": 18.6185,
      "longitude": 73.8420,
      "address": "Trishul Service Station, Pune",
      "hostName": "Indian Oil Corporation",
      "rating": 4.4,
      "plugType": "CCS-2",
      "amenities": ["Petrol Pump", "Convenience Store"],
      "city": "Pune",
      "hours": "24/7",
      "connectorTypes": ["CHAdeMO", "CCS-2", "AC Type-2"]
    },
    {
      "id": "30",
      "name": "Ginger Hotel - Wakad",
      "type": "Tatapower Charger",
      "power": 22,
      "pricePerKwh": 33.15,
      "availability": true,
      "latitude": 18.5994,
      "longitude": 73.7665,
      "address": "Near Indira College Rd, Kala Khadak, Wakad, Pune",
      "hostName": "Ginger Hotels",
      "rating": 4.1,
      "plugType": "Type 2",
      "amenities": ["Hotel", "Restaurant"],
      "city": "Pune",
      "hours": "24/7",
      "connectorTypes": ["Type 2"]
    },
    {
      "id": "31",
      "name": "Lodha Belmondo - Opp MCA Stadium",
      "type": "Tatapower Private Charger",
      "power": 22,
      "pricePerKwh": 33.15,
      "availability": false,
      "latitude": 18.6500,
      "longitude": 73.7600,
      "address": "Lodha Belmondo, Mumbai - Pune Expy, Opposite MCA Stadium, Pune",
      "hostName": "Lodha Group",
      "rating": 4.0,
      "plugType": "Type 2",
      "amenities": ["Residential Complex", "Security"],
      "city": "Pune",
      "hours": "Private Access",
      "connectorTypes": ["Type 2"]
    },
    {
      "id": "32",
      "name": "VEVC-79 - Infosys Parking, Hinjewadi Phase 2",
      "type": "Volttic Charger",
      "power": 50,
      "pricePerKwh": 112.5,
      "availability": true,
      "latitude": 18.5916,
      "longitude": 73.7389,
      "address": "Infosys Parking, MLPL Gate 5, Hinjewadi Phase 2, Pune",
      "hostName": "Volttic",
      "rating": 4.6,
      "plugType": "CCS",
      "amenities": ["IT Park", "Security"],
      "city": "Pune",
      "hours": "24/7",
      "connectorTypes": ["CCS", "CHAdeMO"]
    },
    {
      "id": "33",
      "name": "Bhajan Singh Da Dhabha Charging Station",
      "type": "Sunfuel Charger",
      "power": 22,
      "pricePerKwh": 33.15,
      "availability": true,
      "latitude": 18.5000,
      "longitude": 73.8500,
      "address": "Bhajan Singh Da Dhabha, Pune",
      "hostName": "Sunfuel",
      "rating": 4.2,
      "plugType": "Type 2",
      "amenities": ["Restaurant", "Parking"],
      "city": "Pune",
      "hours": "24/7",
      "connectorTypes": ["Type 2"]
    },
    {
      "id": "34",
      "name": "Sunfuel - Club Mahindra Resort - Tungi",
      "type": "Sunfuel Charger",
      "power": 22,
      "pricePerKwh": 33.15,
      "availability": true,
      "latitude": 18.6000,
      "longitude": 73.7000,
      "address": "Club Mahindra Resort, Tungi, Pune",
      "hostName": "Sunfuel & Club Mahindra",
      "rating": 4.3,
      "plugType": "Type 2",
      "amenities": ["Resort", "Recreation"],
      "city": "Pune",
      "hours": "24/7",
      "connectorTypes": ["Type 2"]
    },
    {
      "id": "35",
      "name": "Tata Power Charging Station - Panchjanya Motors",
      "type": "DC Fast Charger",
      "power": 50,
      "pricePerKwh": 18.00,
      "availability": true,
      "latitude": 18.6186,
      "longitude": 73.8478,
      "address": "Wakad - Bhosari BRTS Road, Century Enka Colony, Bhosari, Pimpri-Chinchwad, Maharashtra 411039",
      "hostName": "Tata Power",
      "rating": 4.5,
      "plugType": "CCS",
      "amenities": ["Service Center", "Restrooms"],
      "city": "Pune",
      "hours": "24/7",
      "connectorTypes": ["CCS", "CHAdeMO"]
    },
    {
      "id": "36",
      "name": "Tata Power Charging Station - Rudra Motors",
      "type": "DC Fast Charger",
      "power": 50,
      "pricePerKwh": 18.00,
      "availability": true,
      "latitude": 18.5760,
      "longitude": 73.9866,
      "address": "Gat No. 1343/A2, Near Ubale Nagar Bus Stop, Wagholi, Pune-412207",
      "hostName": "Tata Power",
      "rating": 4.4,
      "plugType": "CCS",
      "amenities": ["Showroom", "Customer Lounge"],
      "city": "Pune",
      "hours": "24/7",
      "connectorTypes": ["CCS", "CHAdeMO"]
    },
    {
      "id": "37",
      "name": "Tata Power Charging Station - Concorde Tathawade",
      "type": "DC Fast Charger",
      "power": 50,
      "pricePerKwh": 18.00,
      "availability": true,
      "latitude": 18.5921,
      "longitude": 73.7550,
      "address": "Gate No. 129/2B/1, Mumbai Bangalore Express Highway, Ashok Nagar, Tathawade, Pune-411033",
      "hostName": "Tata Power",
      "rating": 4.3,
      "plugType": "CCS",
      "amenities": ["Service Center", "Restrooms"],
      "city": "Pune",
      "hours": "24/7",
      "connectorTypes": ["CCS", "CHAdeMO"]
    },
    {
      "id": "38",
      "name": "Tata Power Charging Station - Concorde Baner",
      "type": "DC Fast Charger",
      "power": 50,
      "pricePerKwh": 18.00,
      "availability": true,
      "latitude": 18.5590,
      "longitude": 73.7865,
      "address": "Supreme Headquarters, Showroom No. 36, Mumbai-Bangalore Highway, Mohan Nagar Co-Op Society, Baner, Pune, Maharashtra 411045",
      "hostName": "Tata Power",
      "rating": 4.2,
      "plugType": "CCS",
      "amenities": ["Showroom", "Customer Lounge"],
      "city": "Pune",
      "hours": "24/7",
      "connectorTypes": ["CCS", "CHAdeMO"]
    },
    {
      "id": "39",
      "name": "Tata Power Charging Station - TACO Hinjewadi Phase II",
      "type": "DC Fast Charger",
      "power": 50,
      "pricePerKwh": 18.00,
      "availability": true,
      "latitude": 18.5916,
      "longitude": 73.7389,
      "address": "SR. NO 280 & 281, Hinjawadi Phase II, Hinjewadi Rajiv Gandhi Infotech Park, Hinjawadi, Pune, Maharashtra 411057",
      "hostName": "Tata Power",
      "rating": 4.6,
      "plugType": "CCS",
      "amenities": ["IT Park", "Security"],
      "city": "Pune",
      "hours": "24/7",
      "connectorTypes": ["CCS", "CHAdeMO"]
    },
    {
      "id": "40",
      "name": "Tata Power Charging Station - Amanora Urban Plaza",
      "type": "AC Charger",
      "power": 22,
      "pricePerKwh": 16.50,
      "availability": true,
      "latitude": 18.5196,
      "longitude": 73.9345,
      "address": "58, Amanora Park Town, Hadapsar, Pune, Maharashtra 411028",
      "hostName": "Tata Power",
      "rating": 4.3,
      "plugType": "Type 2",
      "amenities": ["Shopping Mall", "Restaurants"],
      "city": "Pune",
      "hours": "24/7",
      "connectorTypes": ["Type 2"]
    },
    {
      "id": "41",
      "name": "Tata Power Charging Station - Ginger Hotel Wakad",
      "type": "AC Charger",
      "power": 22,
      "pricePerKwh": 16.50,
      "availability": true,
      "latitude": 18.5994,
      "longitude": 73.7665,
      "address": "Near Indira College Rd, Kala Khadak, Wakad, Pune",
      "hostName": "Tata Power",
      "rating": 4.1,
      "plugType": "Type 2",
      "amenities": ["Hotel", "Restaurant"],
      "city": "Pune",
      "hours": "24/7",
      "connectorTypes": ["Type 2"]
    },
    {
      "id": "42",
      "name": "Tata Power Charging Station - Bafna Motors Erandwane",
      "type": "DC Fast Charger",
      "power": 50,
      "pricePerKwh": 18.00,
      "availability": true,
      "latitude": 18.5090,
      "longitude": 73.8291,
      "address": "Swojas Capital, Law College Rd, Shanti Sheela Society, Apex Colony, Erandwane, Pune, Maharashtra 411008",
      "hostName": "Tata Power",
      "rating": 4.4,
      "plugType": "CCS",
      "amenities": ["Showroom", "Customer Lounge"],
      "city": "Pune",
      "hours": "24/7",
      "connectorTypes": ["CCS", "CHAdeMO"]
    },
    {
      "id": "43",
      "name": "Tata Power Charging Station - TACO Phase II",
      "type": "DC Fast Charger",
      "power": 50,
      "pricePerKwh": 18.00,
      "availability": true,
      "latitude": 18.5916,
      "longitude": 73.7450,
      "address": "SR. NO 280 & 281, Hinjawadi Phase II, Hinjewadi Rajiv Gandhi Infotech Park, Hinjawadi, Pune, Maharashtra 411057",
      "hostName": "Tata Power",
      "rating": 4.6,
      "plugType": "CCS",
      "amenities": ["IT Park", "Security"],
      "city": "Pune",
      "hours": "24/7",
      "connectorTypes": ["CCS", "CHAdeMO"]
    },
    {
      "id": "44",
      "name": "Tata Power Charging Station - Rudra Motors Wagholi",
      "type": "DC Fast Charger",
      "power": 50,
      "pricePerKwh": 18.00,
      "availability": true,
      "latitude": 18.5760,
      "longitude": 73.9860,
      "address": "Gat No.1343/A, Near Ubale Nagar Bus Stop, Wagholi-412207",
      "hostName": "Tata Power",
      "rating": 4.4,
      "plugType": "CCS",
      "amenities": ["Showroom", "Customer Lounge"],
      "city": "Pune",
      "hours": "24/7",
      "connectorTypes": ["CCS", "CHAdeMO"]
    },
    {
      "id": "45",
      "name": "Tata Power Charging Station - TACO Hinjewadi Phase II",
      "type": "DC Fast Charger",
      "power": 50,
      "pricePerKwh": 18.00,
      "availability": true,
      "latitude": 18.5916,
      "longitude": 73.7380,
      "address": "SR. NO 280 & 281, Hinjawadi Phase II, Hinjewadi Rajiv Gandhi Infotech Park, Hinjawadi, Pune, Maharashtra 411057",
      "hostName": "Tata Power",
      "rating": 4.3,
      "plugType": "CCS",
      "amenities": ["Tech Park", "Cafeteria"],
      "city": "Pune",
      "hours": "24/7",
      "connectorTypes": ["CCS", "CHAdeMO"]
    },
    {
      "id": "46",
      "name": "ChargeZone - Novotel Hotel Viman Nagar",
      "type": "AC/DC Charger",
      "power": 30,
      "pricePerKwh": 16.50,
      "availability": true,
      "latitude": 18.5679,
      "longitude": 73.9143,
      "address": "Novotel Hotel, Block-D, 1F, Sakore Nagar, Viman Nagar, Pune, Maharashtra 411014",
      "hostName": "ChargeZone",
      "rating": 4.4,
      "plugType": "CCS",
      "amenities": ["Hotel", "Restaurants"],
      "city": "Pune",
      "hours": "24/7",
      "connectorTypes": ["CCS", "Type 2"]
    },
    {
      "id": "47",
      "name": "ChargeZone - JW Marriott Senapati Bapat Road",
      "type": "AC/DC Charger",
      "power": 30,
      "pricePerKwh": 16.50,
      "availability": true,
      "latitude": 18.5285,
      "longitude": 73.8291,
      "address": "JW Marriott Hotel, Senapati Bapat Rd, Pune, Maharashtra 411053",
      "hostName": "ChargeZone",
      "rating": 4.5,
      "plugType": "CCS",
      "amenities": ["Hotel", "Shopping"],
      "city": "Pune",
      "hours": "24/7",
      "connectorTypes": ["CCS", "Type 2"]
    },
    {
      "id": "48",
      "name": "ChargeZone - The Ritz-Carlton Yerawada",
      "type": "AC/DC Charger",
      "power": 30,
      "pricePerKwh": 16.50,
      "availability": true,
      "latitude": 18.5628,
      "longitude": 73.8986,
      "address": "The Ritz-Carlton, Golf Course Square, Airport Rd, Yerawada, Pune, Maharashtra 411006",
      "hostName": "ChargeZone",
      "rating": 4.6,
      "plugType": "CCS",
      "amenities": ["Luxury Hotel", "Dining"],
      "city": "Pune",
      "hours": "24/7",
      "connectorTypes": ["CCS", "Type 2"]
    },
    {
      "id": "49",
      "name": "ChargeZone - Marriott Suites Fatima Nagar",
      "type": "AC/DC Charger",
      "power": 30,
      "pricePerKwh": 16.50,
      "availability": true,
      "latitude": 18.5018,
      "longitude": 73.9021,
      "address": "Marriott Suites Pune, 81, Mundhwa Rd, Fatima Nagar, Pune, Maharashtra 411036",
      "hostName": "ChargeZone",
      "rating": 4.4,
      "plugType": "CCS",
      "amenities": ["Hotel", "Restaurants"],
      "city": "Pune",
      "hours": "24/7",
      "connectorTypes": ["CCS", "Type 2"]
    },
    {
      "id": "50",
      "name": "ChargeZone - ONYX Koregaon Park",
      "type": "AC/DC Charger",
      "power": 30,
      "pricePerKwh": 16.50,
      "availability": true,
      "latitude": 18.5362,
      "longitude": 73.8938,
      "address": "ONYX, N Main Rd, Koregaon Park Annexe, Koregaon Park, Pune, Maharashtra 411001",
      "hostName": "ChargeZone",
      "rating": 4.3,
      "plugType": "CCS",
      "amenities": ["Shopping", "Caf√©s"],
      "city": "Pune",
      "hours": "24/7", 
      "connectorTypes": ["CCS", "Type 2"]
    }
  ]
}
